[{"id":"310120101","name":"南桥镇","pinyin":"nanqiaozhen","location":{"latitude":30.943817,"longitude":121.457964},"polygon":[]},{"id":"310120102","name":"奉城镇","pinyin":"fengchengzhen","location":{"latitude":30.928248,"longitude":121.654142},"polygon":[]},{"id":"310120104","name":"庄行镇","pinyin":"zhuanghangzhen","location":{"latitude":30.92521,"longitude":121.3852},"polygon":[]},{"id":"310120106","name":"金汇镇","pinyin":"jinhuizhen","location":{"latitude":30.966864,"longitude":121.56037},"polygon":[]},{"id":"310120109","name":"四团镇","pinyin":"situanzhen","location":{"latitude":30.932025,"longitude":121.728152},"polygon":[]},{"id":"310120111","name":"青村镇","pinyin":"qingcunzhen","location":{"latitude":30.904249,"longitude":121.546462},"polygon":[]},{"id":"310120118","name":"柘林镇","pinyin":"zhelinzhen","location":{"latitude":30.834079,"longitude":121.44883},"polygon":[]},{"id":"310120123","name":"海湾镇","pinyin":"haiwanzhen","location":{"latitude":30.845659,"longitude":121.584823},"polygon":[]}]