[{"id":"310110001","name":"定海路街道","pinyin":"dinghailujiedao","location":{"latitude":31.281435,"longitude":121.557656},"polygon":[]},{"id":"310110006","name":"平凉路街道","pinyin":"pinglianglujiedao","location":{"latitude":31.256301,"longitude":121.525205},"polygon":[]},{"id":"310110008","name":"江浦路街道","pinyin":"jiangpulujiedao","location":{"latitude":31.2667,"longitude":121.516879},"polygon":[]},{"id":"310110009","name":"四平路街道","pinyin":"sipinglujiedao","location":{"latitude":31.280112,"longitude":121.505985},"polygon":[]},{"id":"310110012","name":"控江路街道","pinyin":"kongjianglujiedao","location":{"latitude":31.279833,"longitude":121.524853},"polygon":[]},{"id":"310110013","name":"长白新村街道","pinyin":"changbaixincunjiedao","location":{"latitude":31.292299,"longitude":121.549035},"polygon":[]},{"id":"310110015","name":"延吉新村街道","pinyin":"yanjixincunjiedao","location":{"latitude":31.285264,"longitude":121.53574},"polygon":[]},{"id":"310110016","name":"殷行街道","pinyin":"yinhangjiedao","location":{"latitude":31.327679,"longitude":121.543572},"polygon":[]},{"id":"310110018","name":"大桥街道","pinyin":"daqiaojiedao","location":{"latitude":31.263862,"longitude":121.540534},"polygon":[]},{"id":"310110019","name":"五角场街道","pinyin":"wujiaochangjiedao","location":{"latitude":31.298262,"longitude":121.506645},"polygon":[]},{"id":"310110020","name":"新江湾城街道","pinyin":"xinjiangwanchengjiedao","location":{"latitude":31.327238,"longitude":121.512275},"polygon":[]},{"id":"310110021","name":"长海路街道","pinyin":"changhailujiedao","location":{"latitude":31.306862,"longitude":121.541417},"polygon":[]}]