[{"id":"469026100","name":"石碌镇","pinyin":"shiluzhen","location":{"latitude":19.282525,"longitude":109.057769},"polygon":[]},{"id":"469026101","name":"叉河镇","pinyin":"chahezhen","location":{"latitude":19.24423,"longitude":108.92932},"polygon":[]},{"id":"469026102","name":"十月田镇","pinyin":"shiyuetianzhen","location":{"latitude":19.34173,"longitude":108.912247},"polygon":[]},{"id":"469026103","name":"乌烈镇","pinyin":"wuliezhen","location":{"latitude":19.300469,"longitude":108.804931},"polygon":[]},{"id":"469026104","name":"昌化镇","pinyin":"changhuazhen","location":{"latitude":19.312018,"longitude":108.729379},"polygon":[]},{"id":"469026105","name":"海尾镇","pinyin":"haiweizhen","location":{"latitude":19.424856,"longitude":108.870491},"polygon":[]},{"id":"469026106","name":"七叉镇","pinyin":"qichazhen","location":{"latitude":19.127159,"longitude":109.087892},"polygon":[]},{"id":"469026200","name":"王下乡","pinyin":"wangxiaxiang","location":{"latitude":18.984331,"longitude":109.195184},"polygon":[]}]