[{"id":"500236100","name":"永安镇","pinyin":"yonganzhen","location":{"latitude":31.03202,"longitude":109.48646},"polygon":[]},{"id":"500236101","name":"白帝镇","pinyin":"baidizhen","location":{"latitude":31.084615,"longitude":109.555671},"polygon":[]},{"id":"500236102","name":"草堂镇","pinyin":"caotangzhen","location":{"latitude":31.116275,"longitude":109.693916},"polygon":[]},{"id":"500236103","name":"汾河镇","pinyin":"fenhezhen","location":{"latitude":31.181113,"longitude":109.581847},"polygon":[]},{"id":"500236104","name":"康乐镇","pinyin":"kanglezhen","location":{"latitude":31.148092,"longitude":109.423397},"polygon":[]},{"id":"500236105","name":"大树镇","pinyin":"dashuzhen","location":{"latitude":31.205399,"longitude":109.334688},"polygon":[]},{"id":"500236106","name":"竹园镇","pinyin":"zhuyuanzhen","location":{"latitude":31.266281,"longitude":109.265769},"polygon":[]},{"id":"500236107","name":"公平镇","pinyin":"gongpingzhen","location":{"latitude":31.117087,"longitude":109.237412},"polygon":[]},{"id":"500236108","name":"朱衣镇","pinyin":"zhuyizhen","location":{"latitude":31.021744,"longitude":109.348011},"polygon":[]},{"id":"500236109","name":"甲高镇","pinyin":"jiagaozhen","location":{"latitude":30.846132,"longitude":109.178096},"polygon":[]},{"id":"500236110","name":"羊市镇","pinyin":"yangshizhen","location":{"latitude":30.80092,"longitude":109.07357},"polygon":[]},{"id":"500236111","name":"吐祥镇","pinyin":"tuxiangzhen","location":{"latitude":30.714228,"longitude":109.128891},"polygon":[]},{"id":"500236112","name":"青龙镇","pinyin":"qinglongzhen","location":{"latitude":30.768218,"longitude":109.286483},"polygon":[]},{"id":"500236113","name":"兴隆镇","pinyin":"xinglongzhen","location":{"latitude":30.69163,"longitude":109.414398},"polygon":[]},{"id":"500236114","name":"新民镇","pinyin":"xinminzhen","location":{"latitude":30.889968,"longitude":109.454045},"polygon":[]},{"id":"500236115","name":"永乐镇","pinyin":"yonglezhen","location":{"latitude":30.986442,"longitude":109.513229},"polygon":[]},{"id":"500236116","name":"青莲镇","pinyin":"qinglianzhen","location":{"latitude":31.241307,"longitude":109.128051},"polygon":[]},{"id":"500236117","name":"五马镇","pinyin":"wumazhen","location":{"latitude":30.828514,"longitude":109.354785},"polygon":[]},{"id":"500236118","name":"安坪镇","pinyin":"anpingzhen","location":{"latitude":30.90599,"longitude":109.2914},"polygon":[]},{"id":"500236200","name":"红土乡","pinyin":"hongtuxiang","location":{"latitude":31.123158,"longitude":109.108135},"polygon":[]},{"id":"500236201","name":"平安乡","pinyin":"pinganxiang","location":{"latitude":31.337298,"longitude":109.187751},"polygon":[]},{"id":"500236203","name":"岩湾乡","pinyin":"yanwanxiang","location":{"latitude":31.213048,"longitude":109.541344},"polygon":[]},{"id":"500236204","name":"石岗乡","pinyin":"shigangxiang","location":{"latitude":31.118727,"longitude":109.3382},"polygon":[]},{"id":"500236205","name":"康坪乡","pinyin":"kangpingxiang","location":{"latitude":30.985487,"longitude":109.247938},"polygon":[]},{"id":"500236207","name":"云雾土家族乡","pinyin":"yunwutujiazuxiang","location":{"latitude":30.590618,"longitude":109.135043},"polygon":[]},{"id":"500236208","name":"太和土家族乡","pinyin":"taihetujiazuxiang","location":{"latitude":30.635799,"longitude":109.231814},"polygon":[]},{"id":"500236209","name":"龙桥土家族乡","pinyin":"longqiaotujiazuxiang","location":{"latitude":30.573118,"longitude":109.384599},"polygon":[]},{"id":"500236210","name":"长安土家族乡","pinyin":"changantujiazuxiang","location":{"latitude":30.756997,"longitude":109.603353},"polygon":[]},{"id":"500236211","name":"冯坪乡","pinyin":"fengpingxiang","location":{"latitude":30.824834,"longitude":109.504261},"polygon":[]},{"id":"500236213","name":"鹤峰乡","pinyin":"hefengxiang","location":{"latitude":30.921135,"longitude":109.557633},"polygon":[]}]