[{"id":"500233001","name":"忠州街道","pinyin":"zhongzhoujiedao","location":{"latitude":30.319889,"longitude":108.050022},"polygon":[]},{"id":"500233003","name":"新生街道","pinyin":"xinshengjiedao","location":{"latitude":30.219734,"longitude":107.935162},"polygon":[]},{"id":"500233004","name":"乌杨街道","pinyin":"wuyangjiedao","location":{"latitude":30.181254,"longitude":108.009906},"polygon":[]},{"id":"500233102","name":"任家镇","pinyin":"renjiazhen","location":{"latitude":30.146765,"longitude":107.890504},"polygon":[]},{"id":"500233104","name":"洋渡镇","pinyin":"yangduzhen","location":{"latitude":30.11042,"longitude":107.956192},"polygon":[]},{"id":"500233105","name":"东溪镇","pinyin":"dongxizhen","location":{"latitude":30.257608,"longitude":108.051881},"polygon":[]},{"id":"500233106","name":"复兴镇","pinyin":"fuxingzhen","location":{"latitude":30.284918,"longitude":108.102038},"polygon":[]},{"id":"500233107","name":"石宝镇","pinyin":"shibaozhen","location":{"latitude":30.455115,"longitude":108.186101},"polygon":[]},{"id":"500233108","name":"汝溪镇","pinyin":"ruxizhen","location":{"latitude":30.502958,"longitude":108.065757},"polygon":[]},{"id":"500233109","name":"野鹤镇","pinyin":"yehezhen","location":{"latitude":30.542897,"longitude":108.10414},"polygon":[]},{"id":"500233110","name":"官坝镇","pinyin":"guanbazhen","location":{"latitude":30.450016,"longitude":107.911359},"polygon":[]},{"id":"500233111","name":"石黄镇","pinyin":"shihuangzhen","location":{"latitude":30.504773,"longitude":107.845964},"polygon":[]},{"id":"500233112","name":"马灌镇","pinyin":"maguanzhen","location":{"latitude":30.389321,"longitude":107.782992},"polygon":[]},{"id":"500233113","name":"金鸡镇","pinyin":"jinjizhen","location":{"latitude":30.464608,"longitude":107.749739},"polygon":[]},{"id":"500233114","name":"新立镇","pinyin":"xinlizhen","location":{"latitude":30.321715,"longitude":107.603709},"polygon":[]},{"id":"500233115","name":"双桂镇","pinyin":"shuangguizhen","location":{"latitude":30.235786,"longitude":107.597939},"polygon":[]},{"id":"500233116","name":"拔山镇","pinyin":"bashanzhen","location":{"latitude":30.291736,"longitude":107.737321},"polygon":[]},{"id":"500233117","name":"花桥镇","pinyin":"huaqiaozhen","location":{"latitude":30.34662,"longitude":107.694177},"polygon":[]},{"id":"500233118","name":"永丰镇","pinyin":"yongfengzhen","location":{"latitude":30.302094,"longitude":107.821174},"polygon":[]},{"id":"500233119","name":"三汇镇","pinyin":"sanhuizhen","location":{"latitude":30.394165,"longitude":107.880264},"polygon":[]},{"id":"500233120","name":"白石镇","pinyin":"baishizhen","location":{"latitude":30.282241,"longitude":107.884995},"polygon":[]},{"id":"500233122","name":"黄金镇","pinyin":"huangjinzhen","location":{"latitude":30.390371,"longitude":108.012075},"polygon":[]},{"id":"500233201","name":"善广乡","pinyin":"shanguangxiang","location":{"latitude":30.200968,"longitude":107.830751},"polygon":[]},{"id":"500233203","name":"石子乡","pinyin":"shizixiang","location":{"latitude":30.107538,"longitude":108.046157},"polygon":[]},{"id":"500233204","name":"磨子土家族乡","pinyin":"mozitujiazuxiang","location":{"latitude":30.197289,"longitude":108.077382},"polygon":[]},{"id":"500233206","name":"涂井乡","pinyin":"tujingxiang","location":{"latitude":30.428947,"longitude":108.110481},"polygon":[]},{"id":"500233208","name":"金声乡","pinyin":"jinshengxiang","location":{"latitude":30.493661,"longitude":108.002735},"polygon":[]},{"id":"500233210","name":"兴峰乡","pinyin":"xingfengxiang","location":{"latitude":30.479588,"longitude":107.953959},"polygon":[]}]