[{"id":"120119001","name":"文昌街道","pinyin":"wenchangjiedao","location":{"lat":40.045407,"lng":117.404916},"polygon":[]},{"id":"120119100","name":"渔阳镇","pinyin":"yuyangzhen","location":{"lat":40.082878,"lng":117.470149},"polygon":[]},{"id":"120119101","name":"洇溜镇","pinyin":"yinliuzhen","location":{"lat":40.002628,"lng":117.367147},"polygon":[]},{"id":"120119102","name":"官庄镇","pinyin":"guanzhuangzhen","location":{"lat":40.08048,"lng":117.323422},"polygon":[]},{"id":"120119103","name":"马伸桥镇","pinyin":"mashenqiaozhen","location":{"lat":40.094352,"lng":117.60423},"polygon":[]},{"id":"120119104","name":"下营镇","pinyin":"xiayingzhen","location":{"lat":40.195555,"lng":117.47665},"polygon":[]},{"id":"120119105","name":"邦均镇","pinyin":"bangjunzhen","location":{"lat":40.004004,"lng":117.28567},"polygon":[]},{"id":"120119106","name":"别山镇","pinyin":"bieshanzhen","location":{"lat":39.971469,"lng":117.501375},"polygon":[]},{"id":"120119108","name":"尤古庄镇","pinyin":"youguzhuangzhen","location":{"lat":39.922789,"lng":117.262042},"polygon":[]},{"id":"120119109","name":"上仓镇","pinyin":"shangcangzhen","location":{"lat":39.907862,"lng":117.392218},"polygon":[]},{"id":"120119111","name":"下仓镇","pinyin":"xiacangzhen","location":{"lat":39.800036,"lng":117.49191},"polygon":[]},{"id":"120119112","name":"罗庄子镇","pinyin":"luozhuangzizhen","location":{"lat":40.134717,"lng":117.422404},"polygon":[]},{"id":"120119113","name":"白涧镇","pinyin":"baijianzhen","location":{"lat":40.023059,"lng":117.233198},"polygon":[]},{"id":"120119115","name":"侯家营镇","pinyin":"houjiayingzhen","location":{"lat":39.841423,"lng":117.276623},"polygon":[]},{"id":"120119116","name":"桑梓镇","pinyin":"sangzizhen","location":{"lat":39.931162,"lng":117.173187},"polygon":[]},{"id":"120119117","name":"东施古镇","pinyin":"dongshiguzhen","location":{"lat":39.894009,"lng":117.322854},"polygon":[]},{"id":"120119118","name":"下窝头镇","pinyin":"xiawotouzhen","location":{"lat":39.831677,"lng":117.40757},"polygon":[]},{"id":"120119119","name":"杨津庄镇","pinyin":"yangjinzhuangzhen","location":{"lat":39.875428,"lng":117.46933},"polygon":[]},{"id":"120119120","name":"出头岭镇","pinyin":"chutoulingzhen","location":{"lat":40.068962,"lng":117.706202},"polygon":[]},{"id":"120119121","name":"西龙虎峪镇","pinyin":"xilonghuyuzhen","location":{"lat":40.004622,"lng":117.741041},"polygon":[]},{"id":"120119122","name":"穿芳峪镇","pinyin":"chuanfangyuzhen","location":{"lat":40.112843,"lng":117.512525},"polygon":[]},{"id":"120119123","name":"东二营镇","pinyin":"dongeryingzhen","location":{"lat":39.952617,"lng":117.295463},"polygon":[]},{"id":"120119124","name":"许家台镇","pinyin":"xujiataizhen","location":{"lat":40.068595,"lng":117.242515},"polygon":[]},{"id":"120119125","name":"礼明庄镇","pinyin":"limingzhuangzhen","location":{"lat":39.945831,"lng":117.430467},"polygon":[]},{"id":"120119126","name":"东赵各庄镇","pinyin":"dongzhaogezhuangzhen","location":{"lat":39.961724,"lng":117.365159},"polygon":[]},{"id":"120119127","name":"州河湾镇","pinyin":"zhouhewanzhen","location":{"lat":39.998464,"lng":117.619576},"polygon":[]},{"id":"120119203","name":"孙各庄满族乡","pinyin":"sungezhuangmanzuxiang","location":{"lat":40.137147,"lng":117.603247},"polygon":[]}]