[{"id":"310101002","name":"南京东路街道","pinyin":"nanjingdonglujiedao","location":{"lat":31.232536,"lng":121.474681},"polygon":[]},{"id":"310101013","name":"外滩街道","pinyin":"waitanjiedao","location":{"lat":31.234942,"lng":121.487156},"polygon":[]},{"id":"310101015","name":"半淞园路街道","pinyin":"bansongyuanlujiedao","location":{"lat":31.203315,"lng":121.494605},"polygon":[]},{"id":"310101017","name":"小东门街道","pinyin":"xiaodongmenjiedao","location":{"lat":31.219032,"lng":121.501964},"polygon":[]},{"id":"310101018","name":"豫园街道","pinyin":"yuyuanjiedao","location":{"lat":31.22339,"lng":121.48859},"polygon":[]},{"id":"310101019","name":"老西门街道","pinyin":"laoximenjiedao","location":{"lat":31.217164,"lng":121.488736},"polygon":[]},{"id":"310101020","name":"五里桥街道","pinyin":"wuliqiaojiedao","location":{"lat":31.197179,"lng":121.481412},"polygon":[]},{"id":"310101021","name":"打浦桥街道","pinyin":"dapuqiaojiedao","location":{"lat":31.207742,"lng":121.472626},"polygon":[]},{"id":"310101022","name":"淮海中路街道","pinyin":"huaihaizhonglujiedao","location":{"lat":31.218484,"lng":121.476583},"polygon":[]},{"id":"310101023","name":"瑞金二路街道","pinyin":"ruijinerlujiedao","location":{"lat":31.215865,"lng":121.465348},"polygon":[]}]