[{"id":"310105001","name":"华阳路街道","pinyin":"huayanglujiedao","location":{"latitude":31.218989,"longitude":121.419402},"polygon":[]},{"id":"310105002","name":"江苏路街道","pinyin":"jiangsulujiedao","location":{"latitude":31.218506,"longitude":121.430481},"polygon":[]},{"id":"310105004","name":"新华路街道","pinyin":"xinhualujiedao","location":{"latitude":31.204674,"longitude":121.427471},"polygon":[]},{"id":"310105005","name":"周家桥街道","pinyin":"zhoujiaqiaojiedao","location":{"latitude":31.217612,"longitude":121.401623},"polygon":[]},{"id":"310105006","name":"天山路街道","pinyin":"tianshanlujiedao","location":{"latitude":31.208044,"longitude":121.40878},"polygon":[]},{"id":"310105008","name":"仙霞新村街道","pinyin":"xianxiaxincunjiedao","location":{"latitude":31.206014,"longitude":121.391866},"polygon":[]},{"id":"310105009","name":"虹桥街道","pinyin":"hongqiaojiedao","location":{"latitude":31.198606,"longitude":121.404622},"polygon":[]},{"id":"310105010","name":"程家桥街道","pinyin":"chengjiaqiaojiedao","location":{"latitude":31.194663,"longitude":121.368498},"polygon":[]},{"id":"310105011","name":"北新泾街道","pinyin":"beixinjingjiedao","location":{"latitude":31.219323,"longitude":121.370731},"polygon":[]},{"id":"310105102","name":"新泾镇","pinyin":"xinjingzhen","location":{"latitude":31.216989,"longitude":121.351297},"polygon":[]}]