[{"id":"310116001","name":"石化街道","pinyin":"shihuajiedao","location":{"lat":30.712528,"lng":121.327568},"polygon":[]},{"id":"310116101","name":"朱泾镇","pinyin":"zhujingzhen","location":{"lat":30.888844,"lng":121.166702},"polygon":[]},{"id":"310116102","name":"枫泾镇","pinyin":"fengjingzhen","location":{"lat":30.88249,"lng":121.062492},"polygon":[]},{"id":"310116103","name":"张堰镇","pinyin":"zhangyanzhen","location":{"lat":30.798283,"lng":121.281134},"polygon":[]},{"id":"310116104","name":"亭林镇","pinyin":"tinglinzhen","location":{"lat":30.860988,"lng":121.311504},"polygon":[]},{"id":"310116105","name":"吕巷镇","pinyin":"lvxiangzhen","location":{"lat":30.836749,"lng":121.192598},"polygon":[]},{"id":"310116107","name":"廊下镇","pinyin":"langxiazhen","location":{"lat":30.799061,"lng":121.18509},"polygon":[]},{"id":"310116109","name":"金山卫镇","pinyin":"jinshanweizhen","location":{"lat":30.744799,"lng":121.29249},"polygon":[]},{"id":"310116112","name":"漕泾镇","pinyin":"caojingzhen","location":{"lat":30.79509,"lng":121.409701},"polygon":[]},{"id":"310116113","name":"山阳镇","pinyin":"shanyangzhen","location":{"lat":30.760454,"lng":121.357179},"polygon":[]}]