[{"id":"500118001","name":"中山路街道","pinyin":"zhongshanlujiedao","location":{"lat":29.353098,"lng":105.932625},"polygon":[]},{"id":"500118002","name":"胜利路街道","pinyin":"shenglilujiedao","location":{"lat":29.387978,"lng":105.867243},"polygon":[]},{"id":"500118003","name":"南大街街道","pinyin":"nandajiejiedao","location":{"lat":29.28163,"lng":105.855207},"polygon":[]},{"id":"500118004","name":"茶山竹海街道","pinyin":"chashanzhuhaijiedao","location":{"lat":29.446664,"lng":105.96233},"polygon":[]},{"id":"500118005","name":"卫星湖街道","pinyin":"weixinghujiedao","location":{"lat":29.241439,"lng":105.900751},"polygon":[]},{"id":"500118006","name":"大安街道","pinyin":"daanjiedao","location":{"lat":29.391909,"lng":106.019569},"polygon":[]},{"id":"500118007","name":"陈食街道","pinyin":"chenshijiedao","location":{"lat":29.300584,"lng":105.988874},"polygon":[]},{"id":"500118102","name":"临江镇","pinyin":"linjiangzhen","location":{"lat":29.21785,"lng":105.965461},"polygon":[]},{"id":"500118104","name":"何埂镇","pinyin":"hegengzhen","location":{"lat":29.133101,"lng":105.892455},"polygon":[]},{"id":"500118105","name":"松溉镇","pinyin":"songgaizhen","location":{"lat":29.068858,"lng":105.890481},"polygon":[]},{"id":"500118106","name":"朱沱镇","pinyin":"zhutuozhen","location":{"lat":29.016151,"lng":105.81085},"polygon":[]},{"id":"500118107","name":"仙龙镇","pinyin":"xianlongzhen","location":{"lat":29.114054,"lng":105.789671},"polygon":[]},{"id":"500118108","name":"五间镇","pinyin":"wujianzhen","location":{"lat":29.172725,"lng":105.835951},"polygon":[]},{"id":"500118109","name":"来苏镇","pinyin":"laisuzhen","location":{"lat":29.246863,"lng":105.797216},"polygon":[]},{"id":"500118110","name":"宝峰镇","pinyin":"baofengzhen","location":{"lat":29.262408,"lng":105.728331},"polygon":[]},{"id":"500118111","name":"红炉镇","pinyin":"hongluzhen","location":{"lat":29.336038,"lng":105.730594},"polygon":[]},{"id":"500118112","name":"永荣镇","pinyin":"yongrongzhen","location":{"lat":29.315629,"lng":105.664253},"polygon":[]},{"id":"500118113","name":"双石镇","pinyin":"shuangshizhen","location":{"lat":29.422546,"lng":105.828251},"polygon":[]},{"id":"500118114","name":"三教镇","pinyin":"sanjiaozhen","location":{"lat":29.501784,"lng":105.873116},"polygon":[]},{"id":"500118115","name":"板桥镇","pinyin":"banqiaozhen","location":{"lat":29.499262,"lng":105.948627},"polygon":[]},{"id":"500118116","name":"青峰镇","pinyin":"qingfengzhen","location":{"lat":29.335476,"lng":105.818289},"polygon":[]},{"id":"500118117","name":"金龙镇","pinyin":"jinlongzhen","location":{"lat":29.477974,"lng":106.043314},"polygon":[]},{"id":"500118118","name":"吉安镇","pinyin":"jianzhen","location":{"lat":29.174981,"lng":105.760461},"polygon":[]}]