[{"id":"500107001","name":"杨家坪街道","pinyin":"yangjiapingjiedao","location":{"latitude":29.504714,"longitude":106.515799},"polygon":[]},{"id":"500107002","name":"黄桷坪街道","pinyin":"huangjuepingjiedao","location":{"latitude":29.489435,"longitude":106.542968},"polygon":[]},{"id":"500107003","name":"谢家湾街道","pinyin":"xiejiawanjiedao","location":{"latitude":29.521072,"longitude":106.520262},"polygon":[]},{"id":"500107004","name":"石坪桥街道","pinyin":"shipingqiaojiedao","location":{"latitude":29.516799,"longitude":106.500375},"polygon":[]},{"id":"500107006","name":"中梁山街道","pinyin":"zhongliangshanjiedao","location":{"latitude":29.472167,"longitude":106.446634},"polygon":[]},{"id":"500107007","name":"渝州路街道","pinyin":"yuzhoulujiedao","location":{"latitude":29.53391,"longitude":106.487101},"polygon":[]},{"id":"500107008","name":"石桥铺街道","pinyin":"shiqiaopujiedao","location":{"latitude":29.514223,"longitude":106.471782},"polygon":[]},{"id":"500107100","name":"九龙镇","pinyin":"jiulongzhen","location":{"latitude":29.501339,"longitude":106.485145},"polygon":[]},{"id":"500107102","name":"华岩镇","pinyin":"huayanzhen","location":{"latitude":29.456446,"longitude":106.418586},"polygon":[]},{"id":"500107103","name":"含谷镇","pinyin":"hanguzhen","location":{"latitude":29.528711,"longitude":106.376661},"polygon":[]},{"id":"500107104","name":"金凤镇","pinyin":"jinfengzhen","location":{"latitude":29.513316,"longitude":106.299391},"polygon":[]},{"id":"500107105","name":"白市驿镇","pinyin":"baishiyizhen","location":{"latitude":29.482277,"longitude":106.366422},"polygon":[]},{"id":"500107106","name":"走马镇","pinyin":"zoumazhen","location":{"latitude":29.462536,"longitude":106.297033},"polygon":[]},{"id":"500107107","name":"石板镇","pinyin":"shibanzhen","location":{"latitude":29.415394,"longitude":106.377083},"polygon":[]},{"id":"500107108","name":"巴福镇","pinyin":"bafuzhen","location":{"latitude":29.417719,"longitude":106.33791},"polygon":[]},{"id":"500107109","name":"陶家镇","pinyin":"taojiazhen","location":{"latitude":29.373739,"longitude":106.361681},"polygon":[]},{"id":"500107110","name":"西彭镇","pinyin":"xipengzhen","location":{"latitude":29.321701,"longitude":106.322335},"polygon":[]},{"id":"500107111","name":"铜罐驿镇","pinyin":"tongguanyizhen","location":{"latitude":29.316235,"longitude":106.369649},"polygon":[]}]