[{"id":"659008408","name":"都拉塔口岸","pinyin":"dulatakouan","location":{"lat":43.695811,"lng":80.650541},"polygon":[]},{"id":"659008502","name":"兵团六十七团","pinyin":"bingtuanliushiqituan","location":{"lat":43.763633,"lng":80.71168},"polygon":[]},{"id":"659008503","name":"兵团六十八团","pinyin":"bingtuanliushibatuan","location":{"lat":43.881318,"lng":80.935405},"polygon":[]},{"id":"659008507","name":"兵团六十三团","pinyin":"bingtuanliushisantuan","location":{"lat":43.953805,"lng":80.560962},"polygon":[]},{"id":"659008508","name":"兵团六十四团","pinyin":"bingtuanliushisituan","location":{"lat":44.017829,"lng":80.648064},"polygon":[]},{"id":"659008509","name":"兵团六十六团","pinyin":"bingtuanliushiliutuan","location":{"lat":43.947871,"lng":81.014547},"polygon":[]}]