[{"id":"659008408","name":"都拉塔口岸","pinyin":"dulatakouan","location":{"latitude":43.695811,"longitude":80.650541},"polygon":[]},{"id":"659008502","name":"兵团六十七团","pinyin":"bingtuanliushiqituan","location":{"latitude":43.763633,"longitude":80.71168},"polygon":[]},{"id":"659008503","name":"兵团六十八团","pinyin":"bingtuanliushibatuan","location":{"latitude":43.881318,"longitude":80.935405},"polygon":[]},{"id":"659008507","name":"兵团六十三团","pinyin":"bingtuanliushisantuan","location":{"latitude":43.953805,"longitude":80.560962},"polygon":[]},{"id":"659008508","name":"兵团六十四团","pinyin":"bingtuanliushisituan","location":{"latitude":44.017829,"longitude":80.648064},"polygon":[]},{"id":"659008509","name":"兵团六十六团","pinyin":"bingtuanliushiliutuan","location":{"latitude":43.947871,"longitude":81.014547},"polygon":[]}]